[
  {
    "type": "Feature",
    "geometry": {
      "type": "Point",
      "coordinates": [
        -3.04007,
        54.47548
      ]
    },
    "properties": {
      "name": "Helm Crag",
      "absolute_height": "405",
      "link": "https://en.wikipedia.org/wiki/Helm_Crag"
    }
  },
  {
    "type": "Feature",
    "geometry": {
      "type": "Point",
      "coordinates": [
        -3.282,
        54.497
      ]
    },
    "properties": {
      "name": "Pillar",
      "absolute_height": "892",
      "link": "https://en.wikipedia.org/wiki/Pillar_(Lake_District)"
    }
  },
  {
    "type": "Feature",
    "geometry": {
      "type": "Point",
      "coordinates": [
        -3.104,
        54.552
      ]
    },
    "properties": {
      "name": "High Seat",
      "absolute_height": "608",
      "link": "https://en.wikipedia.org/wiki/High_Seat_(Lake_District)"
    }
  },
  {
    "type": "Feature",
    "geometry": {
      "type": "Point",
      "coordinates": [
        -3.014,
        54.547
      ]
    },
    "properties": {
      "name": "Raise",
      "absolute_height": "883",
      "link": "https://en.wikipedia.org/wiki/Raise_(Lake_District)"
    }
  },
  {
    "type": "Feature",
    "geometry": {
      "type": "Point",
      "coordinates": [
        -3.20774,
        54.45684
      ]
    },
    "properties": {
      "name": "Broad Crag",
      "absolute_height": "934",
      "link": "https://en.wikipedia.org/wiki/Broad_Crag"
    }
  },
  {
    "type": "Feature",
    "geometry": {
      "type": "Point",
      "coordinates": [
        -2.87609,
        54.5289
      ]
    },
    "properties": {
      "name": "The Nab",
      "absolute_height": "576",
      "link": "https://en.wikipedia.org/wiki/The_Nab"
    }
  },
  {
    "type": "Feature",
    "geometry": {
      "type": "Point",
      "coordinates": [
        -3.17,
        54.635
      ]
    },
    "properties": {
      "name": "Dodd",
      "absolute_height": "502",
      "link": "https://en.wikipedia.org/wiki/Dodd_(Lake_District)"
    }
  },
  {
    "type": "Feature",
    "geometry": {
      "type": "Point",
      "coordinates": [
        -3.05046,
        54.63985
      ]
    },
    "properties": {
      "name": "Blencathra",
      "absolute_height": "868",
      "link": "https://en.wikipedia.org/wiki/Blencathra"
    }
  },
  {
    "type": "Feature",
    "geometry": {
      "type": "Point",
      "coordinates": [
        -3.33514,
        54.442
      ]
    },
    "properties": {
      "name": "Buckbarrow",
      "absolute_height": "423",
      "link": "https://en.wikipedia.org/wiki/Buckbarrow"
    }
  },
  {
    "type": "Feature",
    "geometry": {
      "type": "Point",
      "coordinates": [
        -3.17083,
        54.56865
      ]
    },
    "properties": {
      "name": "Cat Bells",
      "absolute_height": "451",
      "link": "https://en.wikipedia.org/wiki/Catbells"
    }
  },
  {
    "type": "Feature",
    "geometry": {
      "type": "Point",
      "coordinates": [
        -3.00909,
        54.53326
      ]
    },
    "properties": {
      "name": "Catstye Cam",
      "absolute_height": "890",
      "link": "https://en.wikipedia.org/wiki/Catstye_Cam"
    }
  },
  {
    "type": "Feature",
    "geometry": {
      "type": "Point",
      "coordinates": [
        -3.25,
        54.572
      ]
    },
    "properties": {
      "name": "Crag Hill",
      "absolute_height": "839",
      "link": "https://en.wikipedia.org/wiki/Crag_Hill"
    }
  },
  {
    "type": "Feature",
    "geometry": {
      "type": "Point",
      "coordinates": [
        -3.159,
        54.433
      ]
    },
    "properties": {
      "name": "Crinkle Crags",
      "absolute_height": "859",
      "link": "https://en.wikipedia.org/wiki/Crinkle_Crags"
    }
  },
  {
    "type": "Feature",
    "geometry": {
      "type": "Point",
      "coordinates": [
        -3.20208,
        54.527
      ]
    },
    "properties": {
      "name": "Dale Head",
      "absolute_height": "753",
      "link": "https://en.wikipedia.org/wiki/Dale_Head"
    }
  },
  {
    "type": "Feature",
    "geometry": {
      "type": "Point",
      "coordinates": [
        -3.27918,
        54.57115
      ]
    },
    "properties": {
      "name": "Grasmoor",
      "absolute_height": "852",
      "link": "https://en.wikipedia.org/wiki/Grasmoor"
    }
  },
  {
    "type": "Feature",
    "geometry": {
      "type": "Point",
      "coordinates": [
        -3.194,
        54.464
      ]
    },
    "properties": {
      "name": "Great End",
      "absolute_height": "910",
      "link": "https://en.wikipedia.org/wiki/Great_End"
    }
  },
  {
    "type": "Feature",
    "geometry": {
      "type": "Point",
      "coordinates": [
        -2.93857,
        54.28847
      ]
    },
    "properties": {
      "name": "Gummer&#39;s How",
      "absolute_height": "321",
      "link": "https://en.wikipedia.org/wiki/Gummer's_How"
    }
  },
  {
    "type": "Feature",
    "geometry": {
      "type": "Point",
      "coordinates": [
        -3.18634,
        54.41032
      ]
    },
    "properties": {
      "name": "Hard Knott",
      "absolute_height": "549",
      "link": "https://en.wikipedia.org/wiki/Hard_Knott"
    }
  },
  {
    "type": "Feature",
    "geometry": {
      "type": "Point",
      "coordinates": [
        -3.113,
        54.476
      ]
    },
    "properties": {
      "name": "High Raise",
      "absolute_height": "762",
      "link": "https://en.wikipedia.org/wiki/High_Raise_(Langdale)"
    }
  },
  {
    "type": "Feature",
    "geometry": {
      "type": "Point",
      "coordinates": [
        -2.865,
        54.492
      ]
    },
    "properties": {
      "name": "High Street",
      "absolute_height": "828",
      "link": "https://en.wikipedia.org/wiki/High_Street_(Lake_District)"
    }
  },
  {
    "type": "Feature",
    "geometry": {
      "type": "Point",
      "coordinates": [
        -3.19998,
        54.45512
      ]
    },
    "properties": {
      "name": "Ill Crag",
      "absolute_height": "935",
      "link": "https://en.wikipedia.org/wiki/Ill_Crag"
    }
  },
  {
    "type": "Feature",
    "geometry": {
      "type": "Point",
      "coordinates": [
        -2.89482,
        54.60785
      ]
    },
    "properties": {
      "name": "Little Mell Fell",
      "absolute_height": "505",
      "link": "https://en.wikipedia.org/wiki/Little_Mell_Fell"
    }
  },
  {
    "type": "Feature",
    "geometry": {
      "type": "Point",
      "coordinates": [
        -3.11665,
        54.45412
      ]
    },
    "properties": {
      "name": "Loft Crag",
      "absolute_height": "682",
      "link": "https://en.wikipedia.org/wiki/Loft_Crag"
    }
  },
  {
    "type": "Feature",
    "geometry": {
      "type": "Point",
      "coordinates": [
        -3.10451,
        54.46142
      ]
    },
    "properties": {
      "name": "Pavey Ark",
      "absolute_height": "700",
      "link": "https://en.wikipedia.org/wiki/Pavey_Ark"
    }
  },
  {
    "type": "Feature",
    "geometry": {
      "type": "Point",
      "coordinates": [
        -2.92124,
        54.54384
      ]
    },
    "properties": {
      "name": "Place Fell",
      "absolute_height": "657",
      "link": "https://en.wikipedia.org/wiki/Place_Fell"
    }
  },
  {
    "type": "Feature",
    "geometry": {
      "type": "Point",
      "coordinates": [
        -3.13876,
        54.63906
      ]
    },
    "properties": {
      "name": "Skiddaw Little Man",
      "absolute_height": "865",
      "link": "https://en.wikipedia.org/wiki/Skiddaw_Little_Man"
    }
  },
  {
    "type": "Feature",
    "geometry": {
      "type": "Point",
      "coordinates": [
        -2.97615,
        54.51286
      ]
    },
    "properties": {
      "name": "St Sunday Crag",
      "absolute_height": "841",
      "link": "https://en.wikipedia.org/wiki/St_Sunday_Crag"
    }
  },
  {
    "type": "Feature",
    "geometry": {
      "type": "Point",
      "coordinates": [
        -2.851,
        54.513
      ]
    },
    "properties": {
      "name": "High Raise (High Street)",
      "absolute_height": "802",
      "link": "https://en.wikipedia.org/wiki/High_Raise_(High_Street)"
    }
  },
  {
    "type": "Feature",
    "geometry": {
      "type": "Point",
      "coordinates": [
        -3.07235,
        54.58843
      ]
    },
    "properties": {
      "name": "High Rigg",
      "absolute_height": "357",
      "link": "https://en.wikipedia.org/wiki/High_Rigg"
    }
  },
  {
    "type": "Feature",
    "geometry": {
      "type": "Point",
      "coordinates": [
        -2.85996,
        54.27557
      ]
    },
    "properties": {
      "name": "Whitbarrow",
      "absolute_height": "215",
      "link": "https://en.wikipedia.org/wiki/Whitbarrow"
    }
  },
  {
    "type": "Feature",
    "geometry": {
      "type": "Point",
      "coordinates": [
        -3.02626,
        54.5403
      ]
    },
    "properties": {
      "name": "White Side",
      "absolute_height": "863",
      "link": "https://en.wikipedia.org/wiki/White_Side"
    }
  },
  {
    "type": "Feature",
    "geometry": {
      "type": "Point",
      "coordinates": [
        -3.29612,
        54.3247
      ]
    },
    "properties": {
      "name": "Whitfell",
      "absolute_height": "573",
      "link": "https://en.wikipedia.org/wiki/Whitfell"
    }
  },
  {
    "type": "Feature",
    "geometry": {
      "type": "Point",
      "coordinates": [
        -3.212198,
        54.31419
      ]
    },
    "properties": {
      "name": "Great Stickle",
      "absolute_height": "305",
      "link": "https://en.wikipedia.org/wiki/Great_Stickle"
    }
  },
  {
    "type": "Feature",
    "geometry": {
      "type": "Point",
      "coordinates": [
        -3.208,
        54.503
      ]
    },
    "properties": {
      "name": "Grey Knotts",
      "absolute_height": "697",
      "link": "https://en.wikipedia.org/wiki/Grey_Knotts"
    }
  },
  {
    "type": "Feature",
    "geometry": {
      "type": "Point",
      "coordinates": [
        -3.11,
        54.30694444444445
      ]
    },
    "properties": {
      "name": "Beacon Fell",
      "absolute_height": "255",
      "link": "https://en.wikipedia.org/wiki/Beacon_Fell,_Cumbria"
    }
  },
  {
    "type": "Feature",
    "geometry": {
      "type": "Point",
      "coordinates": [
        -3.415,
        54.513
      ]
    },
    "properties": {
      "name": "Grike",
      "absolute_height": "488",
      "link": "https://en.wikipedia.org/wiki/Grike_(Lake_District)"
    }
  },
  {
    "type": "Feature",
    "geometry": {
      "type": "Point",
      "coordinates": [
        -3.0907,
        54.7568
      ]
    },
    "properties": {
      "name": "Faulds Brow",
      "absolute_height": "344",
      "link": "https://en.wikipedia.org/wiki/Faulds_Brow"
    }
  },
  {
    "type": "Feature",
    "geometry": {
      "type": "Point",
      "coordinates": [
        -3.06,
        54.705
      ]
    },
    "properties": {
      "name": "High Pike",
      "absolute_height": "658",
      "link": "https://en.wikipedia.org/wiki/High_Pike"
    }
  },
  {
    "type": "Feature",
    "geometry": {
      "type": "Point",
      "coordinates": [
        -2.87158,
        54.46243
      ]
    },
    "properties": {
      "name": "Ill Bell",
      "absolute_height": "757",
      "link": "https://en.wikipedia.org/wiki/Ill_Bell"
    }
  },
  {
    "type": "Feature",
    "geometry": {
      "type": "Point",
      "coordinates": [
        -3.00765,
        54.47485
      ]
    },
    "properties": {
      "name": "Stone Arthur",
      "absolute_height": "503",
      "link": "https://en.wikipedia.org/wiki/Stone_Arthur"
    }
  },
  {
    "type": "Feature",
    "geometry": {
      "type": "Point",
      "coordinates": [
        -2.796111111111111,
        54.39833333333333
      ]
    },
    "properties": {
      "name": "Potter Fell",
      "absolute_height": "427",
      "link": "https://en.wikipedia.org/wiki/Potter_Fell"
    }
  },
  {
    "type": "Feature",
    "geometry": {
      "type": "Point",
      "coordinates": [
        -2.87326,
        54.46871
      ]
    },
    "properties": {
      "name": "Froswick",
      "absolute_height": "720",
      "link": "https://en.wikipedia.org/wiki/Froswick"
    }
  },
  {
    "type": "Feature",
    "geometry": {
      "type": "Point",
      "coordinates": [
        -3.01941,
        54.57541
      ]
    },
    "properties": {
      "name": "Great Dodd",
      "absolute_height": "857",
      "link": "https://en.wikipedia.org/wiki/Great_Dodd"
    }
  },
  {
    "type": "Feature",
    "geometry": {
      "type": "Point",
      "coordinates": [
        -3.11788,
        54.61229
      ]
    },
    "properties": {
      "name": "Latrigg",
      "absolute_height": "368",
      "link": "https://en.wikipedia.org/wiki/Latrigg"
    }
  },
  {
    "type": "Feature",
    "geometry": {
      "type": "Point",
      "coordinates": [
        -2.9787,
        54.55508
      ]
    },
    "properties": {
      "name": "Sheffield Pike",
      "absolute_height": "675",
      "link": "https://en.wikipedia.org/wiki/Sheffield_Pike"
    }
  },
  {
    "type": "Feature",
    "geometry": {
      "type": "Point",
      "coordinates": [
        -2.82685,
        54.46274
      ]
    },
    "properties": {
      "name": "Kentmere Pike",
      "absolute_height": "730",
      "link": "https://en.wikipedia.org/wiki/Kentmere_Pike"
    }
  },
  {
    "type": "Feature",
    "geometry": {
      "type": "Point",
      "coordinates": [
        -3.134,
        54.421
      ]
    },
    "properties": {
      "name": "Cold Pike",
      "absolute_height": "701",
      "link": "https://en.wikipedia.org/wiki/Cold_Pike"
    }
  },
  {
    "type": "Feature",
    "geometry": {
      "type": "Point",
      "coordinates": [
        -3.17995,
        54.45622
      ]
    },
    "properties": {
      "name": "Esk Pike",
      "absolute_height": "885",
      "link": "https://en.wikipedia.org/wiki/Esk_Pike"
    }
  },
  {
    "type": "Feature",
    "geometry": {
      "type": "Point",
      "coordinates": [
        -2.990594,
        54.496883
      ]
    },
    "properties": {
      "name": "Fairfield",
      "absolute_height": "873",
      "link": "https://en.wikipedia.org/wiki/Fairfield_(Lake_District)"
    }
  },
  {
    "type": "Feature",
    "geometry": {
      "type": "Point",
      "coordinates": [
        -3.01646,
        54.51882
      ]
    },
    "properties": {
      "name": "Nethermost Pike",
      "absolute_height": "891",
      "link": "https://en.wikipedia.org/wiki/Nethermost_Pike"
    }
  },
  {
    "type": "Feature",
    "geometry": {
      "type": "Point",
      "coordinates": [
        -3.3,
        54.526
      ]
    },
    "properties": {
      "name": "Red Pike",
      "absolute_height": "755",
      "link": "https://en.wikipedia.org/wiki/Red_Pike_(Buttermere)"
    }
  },
  {
    "type": "Feature",
    "geometry": {
      "type": "Point",
      "coordinates": [
        -3.29,
        54.483
      ]
    },
    "properties": {
      "name": "Red Pike",
      "absolute_height": "826",
      "link": "https://en.wikipedia.org/wiki/Red_Pike_(Wasdale)"
    }
  },
  {
    "type": "Feature",
    "geometry": {
      "type": "Point",
      "coordinates": [
        -3.210168,
        54.454435
      ]
    },
    "properties": {
      "name": "Scafell Pike",
      "absolute_height": "978",
      "link": "https://en.wikipedia.org/wiki/Scafell_Pike"
    }
  },
  {
    "type": "Feature",
    "geometry": {
      "type": "Point",
      "coordinates": [
        -3.211527777777778,
        54.45422222222222
      ]
    },
    "properties": {
      "name": "Scafell Pike",
      "absolute_height": "978",
      "link": "https://en.wikipedia.org/wiki/Scafell_Pike"
    }
  },
  {
    "type": "Feature",
    "geometry": {
      "type": "Point",
      "coordinates": [
        -3.01585,
        54.49456
      ]
    },
    "properties": {
      "name": "Seat Sandal",
      "absolute_height": "736",
      "link": "https://en.wikipedia.org/wiki/Seat_Sandal"
    }
  },
  {
    "type": "Feature",
    "geometry": {
      "type": "Point",
      "coordinates": [
        -3.3293,
        54.25693
      ]
    },
    "properties": {
      "name": "Black Combe",
      "absolute_height": "600",
      "link": "https://en.wikipedia.org/wiki/Black_Combe"
    }
  },
  {
    "type": "Feature",
    "geometry": {
      "type": "Point",
      "coordinates": [
        -3.37793,
        54.56377
      ]
    },
    "properties": {
      "name": "Blake Fell",
      "absolute_height": "573",
      "link": "https://en.wikipedia.org/wiki/Blake_Fell"
    }
  },
  {
    "type": "Feature",
    "geometry": {
      "type": "Point",
      "coordinates": [
        -3.11056,
        54.45687
      ]
    },
    "properties": {
      "name": "Harrison Stickle",
      "absolute_height": "736",
      "link": "https://en.wikipedia.org/wiki/Harrison_Stickle"
    }
  },
  {
    "type": "Feature",
    "geometry": {
      "type": "Point",
      "coordinates": [
        -2.6206,
        54.39208
      ]
    },
    "properties": {
      "name": "Grayrigg Forest",
      "absolute_height": "494",
      "link": "https://en.wikipedia.org/wiki/Grayrigg_Forest"
    }
  },
  {
    "type": "Feature",
    "geometry": {
      "type": "Point",
      "coordinates": [
        -3.275,
        54.627
      ]
    },
    "properties": {
      "name": "Graystones",
      "absolute_height": "456",
      "link": "https://en.wikipedia.org/wiki/Graystones"
    }
  },
  {
    "type": "Feature",
    "geometry": {
      "type": "Point",
      "coordinates": [
        -3.04252,
        54.45029
      ]
    },
    "properties": {
      "name": "Silver How",
      "absolute_height": "395",
      "link": "https://en.wikipedia.org/wiki/Silver_How"
    }
  },
  {
    "type": "Feature",
    "geometry": {
      "type": "Point",
      "coordinates": [
        -3.3254,
        54.66052
      ]
    },
    "properties": {
      "name": "Slate Fell",
      "absolute_height": "171",
      "link": "https://en.wikipedia.org/wiki/Slate_Fell"
    }
  },
  {
    "type": "Feature",
    "geometry": {
      "type": "Point",
      "coordinates": [
        -3.45,
        54.46666666666667
      ]
    },
    "properties": {
      "name": "Cold Fell",
      "absolute_height": "293",
      "link": "https://en.wikipedia.org/wiki/Cold_Fell_(Calder_Bridge)"
    }
  },
  {
    "type": "Feature",
    "geometry": {
      "type": "Point",
      "coordinates": [
        -3.465661,
        54.510482
      ]
    },
    "properties": {
      "name": "Flat Fell",
      "absolute_height": "272",
      "link": "https://en.wikipedia.org/wiki/Flat_Fell"
    }
  },
  {
    "type": "Feature",
    "geometry": {
      "type": "Point",
      "coordinates": [
        -3.395752,
        54.504053
      ]
    },
    "properties": {
      "name": "Whoap",
      "absolute_height": "511",
      "link": "https://en.wikipedia.org/wiki/Whoap"
    }
  },
  {
    "type": "Feature",
    "geometry": {
      "type": "Point",
      "coordinates": [
        -3.21127,
        54.57634
      ]
    },
    "properties": {
      "name": "Rowling End",
      "absolute_height": "433",
      "link": "https://en.wikipedia.org/wiki/Rowling_End"
    }
  },
  {
    "type": "Feature",
    "geometry": {
      "type": "Point",
      "coordinates": [
        -2.88728,
        54.5459
      ]
    },
    "properties": {
      "name": "Beda Fell",
      "absolute_height": "509",
      "link": "https://en.wikipedia.org/wiki/Beda_Fell"
    }
  },
  {
    "type": "Feature",
    "geometry": {
      "type": "Point",
      "coordinates": [
        -3.464695,
        54.510015
      ]
    },
    "properties": {
      "name": "Blakeley Raise",
      "absolute_height": "389",
      "link": "https://en.wikipedia.org/wiki/Blakeley_Raise"
    }
  },
  {
    "type": "Feature",
    "geometry": {
      "type": "Point",
      "coordinates": [
        -2.87252,
        54.50646
      ]
    },
    "properties": {
      "name": "The Knott",
      "absolute_height": "739",
      "link": "https://en.wikipedia.org/wiki/The_Knott"
    }
  },
  {
    "type": "Feature",
    "geometry": {
      "type": "Point",
      "coordinates": [
        -3.09354,
        54.68621
      ]
    },
    "properties": {
      "name": "Knott",
      "absolute_height": "710",
      "link": "https://en.wikipedia.org/wiki/Knott"
    }
  },
  {
    "type": "Feature",
    "geometry": {
      "type": "Point",
      "coordinates": [
        -2.80873,
        54.48264
      ]
    },
    "properties": {
      "name": "Branstree",
      "absolute_height": "713",
      "link": "https://en.wikipedia.org/wiki/Branstree"
    }
  },
  {
    "type": "Feature",
    "geometry": {
      "type": "Point",
      "coordinates": [
        -3.16207,
        54.53278
      ]
    },
    "properties": {
      "name": "Castle Crag",
      "absolute_height": "290",
      "link": "https://en.wikipedia.org/wiki/Castle_Crag"
    }
  },
  {
    "type": "Feature",
    "geometry": {
      "type": "Point",
      "coordinates": [
        -2.933,
        54.62
      ]
    },
    "properties": {
      "name": "Great Mell Fell",
      "absolute_height": "537",
      "link": "https://en.wikipedia.org/wiki/Great_Mell_Fell"
    }
  },
  {
    "type": "Feature",
    "geometry": {
      "type": "Point",
      "coordinates": [
        -2.835,
        54.476
      ]
    },
    "properties": {
      "name": "Harter Fell",
      "absolute_height": "778",
      "link": "https://en.wikipedia.org/wiki/Harter_Fell_(Mardale)"
    }
  },
  {
    "type": "Feature",
    "geometry": {
      "type": "Point",
      "coordinates": [
        -3.17302,
        54.5911
      ]
    },
    "properties": {
      "name": "Swinside",
      "absolute_height": "244",
      "link": "https://en.wikipedia.org/wiki/Swinside_(Derwent_Water)"
    }
  },
  {
    "type": "Feature",
    "geometry": {
      "type": "Point",
      "coordinates": [
        -2.90845,
        54.52507
      ]
    },
    "properties": {
      "name": "Angletarn Pikes",
      "absolute_height": "567",
      "link": "https://en.wikipedia.org/wiki/Angletarn_Pikes"
    }
  },
  {
    "type": "Feature",
    "geometry": {
      "type": "Point",
      "coordinates": [
        -3.22953,
        54.56627
      ]
    },
    "properties": {
      "name": "Ard Crags",
      "absolute_height": "581",
      "link": "https://en.wikipedia.org/wiki/Ard_Crags"
    }
  },
  {
    "type": "Feature",
    "geometry": {
      "type": "Point",
      "coordinates": [
        -3.19797,
        54.49199
      ]
    },
    "properties": {
      "name": "Base Brown",
      "absolute_height": "646",
      "link": "https://en.wikipedia.org/wiki/Base_Brown"
    }
  },
  {
    "type": "Feature",
    "geometry": {
      "type": "Point",
      "coordinates": [
        -3.13253,
        54.54437
      ]
    },
    "properties": {
      "name": "Grange Fell",
      "absolute_height": "419",
      "link": "https://en.wikipedia.org/wiki/Grange_Fell"
    }
  },
  {
    "type": "Feature",
    "geometry": {
      "type": "Point",
      "coordinates": [
        -3.13087,
        54.52229
      ]
    },
    "properties": {
      "name": "Great Crag",
      "absolute_height": "440",
      "link": "https://en.wikipedia.org/wiki/Great_Crag"
    }
  },
  {
    "type": "Feature",
    "geometry": {
      "type": "Point",
      "coordinates": [
        -3.241,
        54.592
      ]
    },
    "properties": {
      "name": "Grisedale Pike",
      "absolute_height": "791",
      "link": "https://en.wikipedia.org/wiki/Grisedale_Pike"
    }
  },
  {
    "type": "Feature",
    "geometry": {
      "type": "Point",
      "coordinates": [
        -3.33707,
        54.59119
      ]
    },
    "properties": {
      "name": "Low Fell",
      "absolute_height": "423",
      "link": "https://en.wikipedia.org/wiki/Low_Fell_(Lake_District)"
    }
  },
  {
    "type": "Feature",
    "geometry": {
      "type": "Point",
      "coordinates": [
        -3.54534,
        54.57343
      ]
    },
    "properties": {
      "name": "Watch Hill",
      "absolute_height": "172",
      "link": "https://en.wikipedia.org/wiki/Watch_Hill_(Whitehaven)"
    }
  },
  {
    "type": "Feature",
    "geometry": {
      "type": "Point",
      "coordinates": [
        -3.14025,
        54.35953
      ]
    },
    "properties": {
      "name": "Brown Pike",
      "absolute_height": "682",
      "link": "https://en.wikipedia.org/wiki/Brown_Pike"
    }
  },
  {
    "type": "Feature",
    "geometry": {
      "type": "Point",
      "coordinates": [
        -3.31889,
        54.55544
      ]
    },
    "properties": {
      "name": "Mellbreak",
      "absolute_height": "512",
      "link": "https://en.wikipedia.org/wiki/Mellbreak"
    }
  },
  {
    "type": "Feature",
    "geometry": {
      "type": "Point",
      "coordinates": [
        -3.10321,
        54.47042
      ]
    },
    "properties": {
      "name": "Sergeant Man",
      "absolute_height": "736",
      "link": "https://en.wikipedia.org/wiki/Sergeant_Man"
    }
  },
  {
    "type": "Feature",
    "geometry": {
      "type": "Point",
      "coordinates": [
        -3.212,
        54.496
      ]
    },
    "properties": {
      "name": "Brandreth",
      "absolute_height": "715",
      "link": "https://en.wikipedia.org/wiki/Brandreth"
    }
  },
  {
    "type": "Feature",
    "geometry": {
      "type": "Point",
      "coordinates": [
        -3.403,
        54.494
      ]
    },
    "properties": {
      "name": "Lank Rigg",
      "absolute_height": "541",
      "link": "https://en.wikipedia.org/wiki/Lank_Rigg"
    }
  },
  {
    "type": "Feature",
    "geometry": {
      "type": "Point",
      "coordinates": [
        -3.07778,
        54.55963
      ]
    },
    "properties": {
      "name": "Raven Crag",
      "absolute_height": "461",
      "link": "https://en.wikipedia.org/wiki/Raven_Crag"
    }
  },
  {
    "type": "Feature",
    "geometry": {
      "type": "Point",
      "coordinates": [
        -3.302,
        54.493
      ]
    },
    "properties": {
      "name": "Steeple",
      "absolute_height": "819",
      "link": "https://en.wikipedia.org/wiki/Steeple_(Lake_District)"
    }
  },
  {
    "type": "Feature",
    "geometry": {
      "type": "Point",
      "coordinates": [
        -3.12671,
        54.70747
      ]
    },
    "properties": {
      "name": "Longlands Fell",
      "absolute_height": "483",
      "link": "https://en.wikipedia.org/wiki/Longlands_Fell"
    }
  },
  {
    "type": "Feature",
    "geometry": {
      "type": "Point",
      "coordinates": [
        -3.01673,
        54.40557
      ]
    },
    "properties": {
      "name": "Black Fell",
      "absolute_height": "323",
      "link": "https://en.wikipedia.org/wiki/Black_Fell_(Lake_District)"
    }
  },
  {
    "type": "Feature",
    "geometry": {
      "type": "Point",
      "coordinates": [
        -3.21476,
        54.48553
      ]
    },
    "properties": {
      "name": "Green Gable",
      "absolute_height": "801",
      "link": "https://en.wikipedia.org/wiki/Green_Gable"
    }
  },
  {
    "type": "Feature",
    "geometry": {
      "type": "Point",
      "coordinates": [
        -2.952,
        54.368
      ]
    },
    "properties": {
      "name": "Claife Heights",
      "absolute_height": "270",
      "link": "https://en.wikipedia.org/wiki/Claife_Heights"
    }
  },
  {
    "type": "Feature",
    "geometry": {
      "type": "Point",
      "coordinates": [
        -3.16582,
        54.44737
      ]
    },
    "properties": {
      "name": "Bowfell",
      "absolute_height": "902",
      "link": "https://en.wikipedia.org/wiki/Bowfell"
    }
  },
  {
    "type": "Feature",
    "geometry": {
      "type": "Point",
      "coordinates": [
        -3.48242,
        54.50232
      ]
    },
    "properties": {
      "name": "Dent",
      "absolute_height": "352",
      "link": "https://en.wikipedia.org/wiki/Dent_(fell)"
    }
  },
  {
    "type": "Feature",
    "geometry": {
      "type": "Point",
      "coordinates": [
        -3.219,
        54.482
      ]
    },
    "properties": {
      "name": "Great Gable",
      "absolute_height": "899",
      "link": "https://en.wikipedia.org/wiki/Great_Gable"
    }
  },
  {
    "type": "Feature",
    "geometry": {
      "type": "Point",
      "coordinates": [
        -3.016054,
        54.527232
      ]
    },
    "properties": {
      "name": "Helvellyn",
      "absolute_height": "950",
      "link": "https://en.wikipedia.org/wiki/Helvellyn"
    }
  },
  {
    "type": "Feature",
    "geometry": {
      "type": "Point",
      "coordinates": [
        -3.225,
        54.448
      ]
    },
    "properties": {
      "name": "Scafell",
      "absolute_height": "964",
      "link": "https://en.wikipedia.org/wiki/Sca_Fell"
    }
  },
  {
    "type": "Feature",
    "geometry": {
      "type": "Point",
      "coordinates": [
        -3.13863,
        54.2454
      ]
    },
    "properties": {
      "name": "Kirkby Moor (Lowick High Common)",
      "absolute_height": "333",
      "link": "https://en.wikipedia.org/wiki/Kirkby_Moor"
    }
  },
  {
    "type": "Feature",
    "geometry": {
      "type": "Point",
      "coordinates": [
        -2.8929,
        54.44969
      ]
    },
    "properties": {
      "name": "Troutbeck Tongue",
      "absolute_height": "364",
      "link": "https://en.wikipedia.org/wiki/Troutbeck_Tongue"
    }
  },
  {
    "type": "Feature",
    "geometry": {
      "type": "Point",
      "coordinates": [
        -3.2497,
        54.7272
      ]
    },
    "properties": {
      "name": "Caer Mote",
      "absolute_height": "285",
      "link": "https://en.wikipedia.org/wiki/Caer_Mote"
    }
  },
  {
    "type": "Feature",
    "geometry": {
      "type": "Point",
      "coordinates": [
        -3.21127,
        54.57634
      ]
    },
    "properties": {
      "name": "Causey Pike",
      "absolute_height": "637",
      "link": "https://en.wikipedia.org/wiki/Causey_Pike"
    }
  },
  {
    "type": "Feature",
    "geometry": {
      "type": "Point",
      "coordinates": [
        -3.00826,
        54.4371
      ]
    },
    "properties": {
      "name": "Loughrigg Fell",
      "absolute_height": "335",
      "link": "https://en.wikipedia.org/wiki/Loughrigg_Fell"
    }
  },
  {
    "type": "Feature",
    "geometry": {
      "type": "Point",
      "coordinates": [
        -3.30568,
        54.67422
      ]
    },
    "properties": {
      "name": "Watch Hill",
      "absolute_height": "254",
      "link": "https://en.wikipedia.org/wiki/Watch_Hill_(Cockermouth)"
    }
  },
  {
    "type": "Feature",
    "geometry": {
      "type": "Point",
      "coordinates": [
        -3.32982,
        54.46365
      ]
    },
    "properties": {
      "name": "Seatallan",
      "absolute_height": "692",
      "link": "https://en.wikipedia.org/wiki/Seatallan"
    }
  },
  {
    "type": "Feature",
    "geometry": {
      "type": "Point",
      "coordinates": [
        -2.78716,
        54.3237
      ]
    },
    "properties": {
      "name": "Cunswick Scar",
      "absolute_height": "207",
      "link": "https://en.wikipedia.org/wiki/Cunswick_Scar"
    }
  },
  {
    "type": "Feature",
    "geometry": {
      "type": "Point",
      "coordinates": [
        -2.88622,
        54.49737
      ]
    },
    "properties": {
      "name": "Gray Crag",
      "absolute_height": "699",
      "link": "https://en.wikipedia.org/wiki/Gray_Crag"
    }
  },
  {
    "type": "Feature",
    "geometry": {
      "type": "Point",
      "coordinates": [
        -3.13732,
        54.36495
      ]
    },
    "properties": {
      "name": "Buck Pike",
      "absolute_height": "744",
      "link": "https://en.wikipedia.org/wiki/Buck_Pike"
    }
  },
  {
    "type": "Feature",
    "geometry": {
      "type": "Point",
      "coordinates": [
        -3.15588,
        54.64159
      ]
    },
    "properties": {
      "name": "Carl Side",
      "absolute_height": "746",
      "link": "https://en.wikipedia.org/wiki/Carl_Side"
    }
  },
  {
    "type": "Feature",
    "geometry": {
      "type": "Point",
      "coordinates": [
        -3.06938,
        54.65227
      ]
    },
    "properties": {
      "name": "Mungrisdale Common",
      "absolute_height": "633",
      "link": "https://en.wikipedia.org/wiki/Mungrisdale_Common"
    }
  },
  {
    "type": "Feature",
    "geometry": {
      "type": "Point",
      "coordinates": [
        -3.28941,
        54.55216
      ]
    },
    "properties": {
      "name": "Rannerdale Knotts",
      "absolute_height": "355",
      "link": "https://en.wikipedia.org/wiki/Rannerdale_Knotts"
    }
  },
  {
    "type": "Feature",
    "geometry": {
      "type": "Point",
      "coordinates": [
        -3.12166,
        54.5808
      ]
    },
    "properties": {
      "name": "Walla Crag",
      "absolute_height": "379",
      "link": "https://en.wikipedia.org/wiki/Walla_Crag"
    }
  },
  {
    "type": "Feature",
    "geometry": {
      "type": "Point",
      "coordinates": [
        -3.10733,
        54.56565
      ]
    },
    "properties": {
      "name": "Bleaberry Fell",
      "absolute_height": "590",
      "link": "https://en.wikipedia.org/wiki/Bleaberry_Fell"
    }
  },
  {
    "type": "Feature",
    "geometry": {
      "type": "Point",
      "coordinates": [
        -3.13744,
        54.36944
      ]
    },
    "properties": {
      "name": "Dow Crag",
      "absolute_height": "778",
      "link": "https://en.wikipedia.org/wiki/Dow_Crag"
    }
  },
  {
    "type": "Feature",
    "geometry": {
      "type": "Point",
      "coordinates": [
        -3.1653,
        54.48332
      ]
    },
    "properties": {
      "name": "Glaramara",
      "absolute_height": "783",
      "link": "https://en.wikipedia.org/wiki/Glaramara"
    }
  },
  {
    "type": "Feature",
    "geometry": {
      "type": "Point",
      "coordinates": [
        -2.91761,
        54.58881
      ]
    },
    "properties": {
      "name": "Gowbarrow Fell",
      "absolute_height": "481",
      "link": "https://en.wikipedia.org/wiki/Gowbarrow_Fell"
    }
  },
  {
    "type": "Feature",
    "geometry": {
      "type": "Point",
      "coordinates": [
        -3.26814,
        54.51464
      ]
    },
    "properties": {
      "name": "High Crag",
      "absolute_height": "744",
      "link": "https://en.wikipedia.org/wiki/High_Crag"
    }
  },
  {
    "type": "Feature",
    "geometry": {
      "type": "Point",
      "coordinates": [
        -3.185,
        54.534
      ]
    },
    "properties": {
      "name": "High Spy",
      "absolute_height": "653",
      "link": "https://en.wikipedia.org/wiki/High_Spy"
    }
  },
  {
    "type": "Feature",
    "geometry": {
      "type": "Point",
      "coordinates": [
        -3.26267,
        54.5875
      ]
    },
    "properties": {
      "name": "Hopegill Head",
      "absolute_height": "770",
      "link": "https://en.wikipedia.org/wiki/Hopegill_Head"
    }
  },
  {
    "type": "Feature",
    "geometry": {
      "type": "Point",
      "coordinates": [
        -3.28257,
        54.4327
      ]
    },
    "properties": {
      "name": "Illgill Head",
      "absolute_height": "609",
      "link": "https://en.wikipedia.org/wiki/Illgill_Head"
    }
  },
  {
    "type": "Feature",
    "geometry": {
      "type": "Point",
      "coordinates": [
        -3.22178,
        54.46209
      ]
    },
    "properties": {
      "name": "Lingmell",
      "absolute_height": "807",
      "link": "https://en.wikipedia.org/wiki/Lingmell"
    }
  },
  {
    "type": "Feature",
    "geometry": {
      "type": "Point",
      "coordinates": [
        -3.22226,
        54.58162
      ]
    },
    "properties": {
      "name": "Outerside",
      "absolute_height": "596",
      "link": "https://en.wikipedia.org/wiki/Outerside"
    }
  },
  {
    "type": "Feature",
    "geometry": {
      "type": "Point",
      "coordinates": [
        -3.22668,
        54.57439
      ]
    },
    "properties": {
      "name": "Scar Crags",
      "absolute_height": "672",
      "link": "https://en.wikipedia.org/wiki/Scar_Crags"
    }
  },
  {
    "type": "Feature",
    "geometry": {
      "type": "Point",
      "coordinates": [
        -3.2998,
        54.49004
      ]
    },
    "properties": {
      "name": "Scoat Fell",
      "absolute_height": "841",
      "link": "https://en.wikipedia.org/wiki/Scoat_Fell"
    }
  },
  {
    "type": "Feature",
    "geometry": {
      "type": "Point",
      "coordinates": [
        -2.81579,
        54.44934
      ]
    },
    "properties": {
      "name": "Shipman Knotts",
      "absolute_height": "587",
      "link": "https://en.wikipedia.org/wiki/Shipman_Knotts"
    }
  },
  {
    "type": "Feature",
    "geometry": {
      "type": "Point",
      "coordinates": [
        -3.25736,
        54.56598
      ]
    },
    "properties": {
      "name": "Wandope",
      "absolute_height": "772",
      "link": "https://en.wikipedia.org/wiki/Wandope"
    }
  },
  {
    "type": "Feature",
    "geometry": {
      "type": "Point",
      "coordinates": [
        -3.26951,
        54.55867
      ]
    },
    "properties": {
      "name": "Whiteless Pike",
      "absolute_height": "660",
      "link": "https://en.wikipedia.org/wiki/Whiteless_Pike"
    }
  },
  {
    "type": "Feature",
    "geometry": {
      "type": "Point",
      "coordinates": [
        -3.27738,
        54.46421
      ]
    },
    "properties": {
      "name": "Yewbarrow",
      "absolute_height": "628",
      "link": "https://en.wikipedia.org/wiki/Yewbarrow"
    }
  },
  {
    "type": "Feature",
    "geometry": {
      "type": "Point",
      "coordinates": [
        -3.20434,
        54.70852
      ]
    },
    "properties": {
      "name": "Binsey",
      "absolute_height": "447",
      "link": "https://en.wikipedia.org/wiki/Binsey"
    }
  },
  {
    "type": "Feature",
    "geometry": {
      "type": "Point",
      "coordinates": [
        -3.03379,
        54.59326
      ]
    },
    "properties": {
      "name": "Clough Head",
      "absolute_height": "726",
      "link": "https://en.wikipedia.org/wiki/Clough_Head"
    }
  },
  {
    "type": "Feature",
    "geometry": {
      "type": "Point",
      "coordinates": [
        -3.01156,
        54.50807
      ]
    },
    "properties": {
      "name": "Dollywaggon Pike",
      "absolute_height": "858",
      "link": "https://en.wikipedia.org/wiki/Dollywaggon_Pike"
    }
  },
  {
    "type": "Feature",
    "geometry": {
      "type": "Point",
      "coordinates": [
        -3.28381,
        54.52167
      ]
    },
    "properties": {
      "name": "High Stile",
      "absolute_height": "807",
      "link": "https://en.wikipedia.org/wiki/High_Stile"
    }
  },
  {
    "type": "Feature",
    "geometry": {
      "type": "Point",
      "coordinates": [
        -3.056,
        54.396
      ]
    },
    "properties": {
      "name": "Holme Fell",
      "absolute_height": "317",
      "link": "https://en.wikipedia.org/wiki/Holme_Fell"
    }
  },
  {
    "type": "Feature",
    "geometry": {
      "type": "Point",
      "coordinates": [
        -3.242,
        54.483
      ]
    },
    "properties": {
      "name": "Kirk Fell",
      "absolute_height": "802",
      "link": "https://en.wikipedia.org/wiki/Kirk_Fell"
    }
  },
  {
    "type": "Feature",
    "geometry": {
      "type": "Point",
      "coordinates": [
        -3.12519,
        54.42798
      ]
    },
    "properties": {
      "name": "Pike of Blisco",
      "absolute_height": "705",
      "link": "https://en.wikipedia.org/wiki/Pike_of_Blisco"
    }
  },
  {
    "type": "Feature",
    "geometry": {
      "type": "Point",
      "coordinates": [
        -3.12287,
        54.45586
      ]
    },
    "properties": {
      "name": "Pike of Stickle",
      "absolute_height": "709",
      "link": "https://en.wikipedia.org/wiki/Pike_of_Stickle"
    }
  },
  {
    "type": "Feature",
    "geometry": {
      "type": "Point",
      "coordinates": [
        -2.93347,
        54.47006
      ]
    },
    "properties": {
      "name": "Red Screes",
      "absolute_height": "776",
      "link": "https://en.wikipedia.org/wiki/Red_Screes"
    }
  },
  {
    "type": "Feature",
    "geometry": {
      "type": "Point",
      "coordinates": [
        -2.90133,
        54.48198
      ]
    },
    "properties": {
      "name": "Stony Cove Pike",
      "absolute_height": "763",
      "link": "https://en.wikipedia.org/wiki/Stony_Cove_Pike"
    }
  },
  {
    "type": "Feature",
    "geometry": {
      "type": "Point",
      "coordinates": [
        -3.01751,
        54.56105
      ]
    },
    "properties": {
      "name": "Stybarrow Dodd",
      "absolute_height": "843",
      "link": "https://en.wikipedia.org/wiki/Stybarrow_Dodd"
    }
  },
  {
    "type": "Feature",
    "geometry": {
      "type": "Point",
      "coordinates": [
        -3.343,
        54.486
      ]
    },
    "properties": {
      "name": "Caw Fell",
      "absolute_height": "697",
      "link": "https://en.wikipedia.org/wiki/Caw_Fell"
    }
  },
  {
    "type": "Feature",
    "geometry": {
      "type": "Point",
      "coordinates": [
        -3.18275,
        54.55325
      ]
    },
    "properties": {
      "name": "Maiden Moor",
      "absolute_height": "576",
      "link": "https://en.wikipedia.org/wiki/Maiden_Moor"
    }
  },
  {
    "type": "Feature",
    "geometry": {
      "type": "Point",
      "coordinates": [
        -3.236,
        54.54
      ]
    },
    "properties": {
      "name": "Robinson",
      "absolute_height": "737",
      "link": "https://en.wikipedia.org/wiki/Robinson_(Lake_District)"
    }
  },
  {
    "type": "Feature",
    "geometry": {
      "type": "Point",
      "coordinates": [
        -3.12234,
        54.49271
      ]
    },
    "properties": {
      "name": "Sergeant&#39;s Crag",
      "absolute_height": "571",
      "link": "https://en.wikipedia.org/wiki/Sergeant's_Crag"
    }
  },
  {
    "type": "Feature",
    "geometry": {
      "type": "Point",
      "coordinates": [
        -3.235,
        54.627
      ]
    },
    "properties": {
      "name": "Lord&#39;s Seat",
      "absolute_height": "552",
      "link": "https://en.wikipedia.org/wiki/Lord's_Seat"
    }
  },
  {
    "type": "Feature",
    "geometry": {
      "type": "Point",
      "coordinates": [
        -3.36382,
        54.37249
      ]
    },
    "properties": {
      "name": "Muncaster Fell",
      "absolute_height": "231",
      "link": "https://en.wikipedia.org/wiki/Muncaster_Fell"
    }
  },
  {
    "type": "Feature",
    "geometry": {
      "type": "Point",
      "coordinates": [
        -3.22956,
        54.51594
      ]
    },
    "properties": {
      "name": "Fleetwith Pike",
      "absolute_height": "648",
      "link": "https://en.wikipedia.org/wiki/Fleetwith_Pike"
    }
  },
  {
    "type": "Feature",
    "geometry": {
      "type": "Point",
      "coordinates": [
        -2.87889,
        54.5154
      ]
    },
    "properties": {
      "name": "Rest Dodd",
      "absolute_height": "696",
      "link": "https://en.wikipedia.org/wiki/Rest_Dodd"
    }
  },
  {
    "type": "Feature",
    "geometry": {
      "type": "Point",
      "coordinates": [
        -3.11376,
        54.46134
      ]
    },
    "properties": {
      "name": "Thunacar Knott",
      "absolute_height": "723",
      "link": "https://en.wikipedia.org/wiki/Thunacar_Knott"
    }
  },
  {
    "type": "Feature",
    "geometry": {
      "type": "Point",
      "coordinates": [
        -3.218,
        54.63
      ]
    },
    "properties": {
      "name": "Barf",
      "absolute_height": "468",
      "link": "https://en.wikipedia.org/wiki/Barf_(Lake_District)"
    }
  },
  {
    "type": "Feature",
    "geometry": {
      "type": "Point",
      "coordinates": [
        -3.197034,
        54.585799
      ]
    },
    "properties": {
      "name": "Barrow",
      "absolute_height": "455",
      "link": "https://en.wikipedia.org/wiki/Barrow_(Lake_District)"
    }
  },
  {
    "type": "Feature",
    "geometry": {
      "type": "Point",
      "coordinates": [
        -3.10199,
        54.53964
      ]
    },
    "properties": {
      "name": "High Tove",
      "absolute_height": "515",
      "link": "https://en.wikipedia.org/wiki/High_Tove"
    }
  },
  {
    "type": "Feature",
    "geometry": {
      "type": "Point",
      "coordinates": [
        -2.8322,
        54.3818
      ]
    },
    "properties": {
      "name": "Reston Scar",
      "absolute_height": "255",
      "link": "https://en.wikipedia.org/wiki/Reston_Scar"
    }
  },
  {
    "type": "Feature",
    "geometry": {
      "type": "Point",
      "coordinates": [
        -3.242,
        54.571
      ]
    },
    "properties": {
      "name": "Sail",
      "absolute_height": "773",
      "link": "https://en.wikipedia.org/wiki/Sail_(Lake_District)"
    }
  },
  {
    "type": "Feature",
    "geometry": {
      "type": "Point",
      "coordinates": [
        -3.2041666666666666,
        54.388333333333335
      ]
    },
    "properties": {
      "name": "Harter Fell",
      "absolute_height": "649",
      "link": "https://en.wikipedia.org/wiki/Harter_Fell_(Eskdale)"
    }
  },
  {
    "type": "Feature",
    "geometry": {
      "type": "Point",
      "coordinates": [
        -3.279,
        54.587
      ]
    },
    "properties": {
      "name": "Whiteside",
      "absolute_height": "719",
      "link": "https://en.wikipedia.org/wiki/Whiteside_(Lake_District)"
    }
  },
  {
    "type": "Feature",
    "geometry": {
      "type": "Point",
      "coordinates": [
        -2.956,
        54.52
      ]
    },
    "properties": {
      "name": "Birks",
      "absolute_height": "622",
      "link": "https://en.wikipedia.org/wiki/Birks_(Lake_District)"
    }
  },
  {
    "type": "Feature",
    "geometry": {
      "type": "Point",
      "coordinates": [
        -3.32278,
        54.4844
      ]
    },
    "properties": {
      "name": "Haycock",
      "absolute_height": "797",
      "link": "https://en.wikipedia.org/wiki/Haycock_(Lake_District)"
    }
  },
  {
    "type": "Feature",
    "geometry": {
      "type": "Point",
      "coordinates": [
        -2.88457,
        54.42099
      ]
    },
    "properties": {
      "name": "Sour Howes",
      "absolute_height": "483",
      "link": "https://en.wikipedia.org/wiki/Sour_Howes"
    }
  },
  {
    "type": "Feature",
    "geometry": {
      "type": "Point",
      "coordinates": [
        -3.00122,
        54.65375
      ]
    },
    "properties": {
      "name": "Souther Fell",
      "absolute_height": "522",
      "link": "https://en.wikipedia.org/wiki/Souther_Fell"
    }
  },
  {
    "type": "Feature",
    "geometry": {
      "type": "Point",
      "coordinates": [
        -3.076,
        54.473
      ]
    },
    "properties": {
      "name": "Tarn Crag",
      "absolute_height": "551",
      "link": "https://en.wikipedia.org/wiki/Tarn_Crag_(Easedale)"
    }
  },
  {
    "type": "Feature",
    "geometry": {
      "type": "Point",
      "coordinates": [
        -2.787,
        54.463
      ]
    },
    "properties": {
      "name": "Tarn Crag (Far Eastern Fells)",
      "absolute_height": "664",
      "link": "https://en.wikipedia.org/wiki/Tarn_Crag_(Far_Eastern_Fells)"
    }
  },
  {
    "type": "Feature",
    "geometry": {
      "type": "Point",
      "coordinates": [
        -2.839,
        54.542
      ]
    },
    "properties": {
      "name": "Wether Hill",
      "absolute_height": "674",
      "link": "https://en.wikipedia.org/wiki/Wether_Hill_(Lake_District)"
    }
  },
  {
    "type": "Feature",
    "geometry": {
      "type": "Point",
      "coordinates": [
        -3.07827,
        54.46076
      ]
    },
    "properties": {
      "name": "Blea Rigg",
      "absolute_height": "541",
      "link": "https://en.wikipedia.org/wiki/Blea_Rigg"
    }
  },
  {
    "type": "Feature",
    "geometry": {
      "type": "Point",
      "coordinates": [
        -2.93939,
        54.52663
      ]
    },
    "properties": {
      "name": "Arnison Crag",
      "absolute_height": "433",
      "link": "https://en.wikipedia.org/wiki/Arnison_Crag"
    }
  },
  {
    "type": "Feature",
    "geometry": {
      "type": "Point",
      "coordinates": [
        -3.375,
        54.575
      ]
    },
    "properties": {
      "name": "Burnbank Fell",
      "absolute_height": "475",
      "link": "https://en.wikipedia.org/wiki/Burnbank_Fell"
    }
  },
  {
    "type": "Feature",
    "geometry": {
      "type": "Point",
      "coordinates": [
        -3.295,
        54.706
      ]
    },
    "properties": {
      "name": "Clints Crags",
      "absolute_height": "245",
      "link": "https://en.wikipedia.org/wiki/Clints_Crags"
    }
  },
  {
    "type": "Feature",
    "geometry": {
      "type": "Point",
      "coordinates": [
        -3.342,
        54.605
      ]
    },
    "properties": {
      "name": "Fellbarrow",
      "absolute_height": "416",
      "link": "https://en.wikipedia.org/wiki/Fellbarrow"
    }
  },
  {
    "type": "Feature",
    "geometry": {
      "type": "Point",
      "coordinates": [
        -3.05253,
        54.47986
      ]
    },
    "properties": {
      "name": "Gibson Knott",
      "absolute_height": "422",
      "link": "https://en.wikipedia.org/wiki/Gibson_Knott"
    }
  },
  {
    "type": "Feature",
    "geometry": {
      "type": "Point",
      "coordinates": [
        -2.95846,
        54.54895
      ]
    },
    "properties": {
      "name": "Glenridding Dodd",
      "absolute_height": "442",
      "link": "https://en.wikipedia.org/wiki/Glenridding_Dodd"
    }
  },
  {
    "type": "Feature",
    "geometry": {
      "type": "Point",
      "coordinates": [
        -3.274,
        54.645
      ]
    },
    "properties": {
      "name": "Ling Fell",
      "absolute_height": "373",
      "link": "https://en.wikipedia.org/wiki/Ling_Fell"
    }
  },
  {
    "type": "Feature",
    "geometry": {
      "type": "Point",
      "coordinates": [
        -2.996,
        54.457
      ]
    },
    "properties": {
      "name": "Nab Scar",
      "absolute_height": "455",
      "link": "https://en.wikipedia.org/wiki/Nab_Scar"
    }
  },
  {
    "type": "Feature",
    "geometry": {
      "type": "Point",
      "coordinates": [
        -3.15996,
        54.45821
      ]
    },
    "properties": {
      "name": "Rossett Pike",
      "absolute_height": "651",
      "link": "https://en.wikipedia.org/wiki/Rossett_Pike"
    }
  },
  {
    "type": "Feature",
    "geometry": {
      "type": "Point",
      "coordinates": [
        -3.32735,
        54.53018
      ]
    },
    "properties": {
      "name": "Starling Dodd",
      "absolute_height": "633",
      "link": "https://en.wikipedia.org/wiki/Starling_Dodd"
    }
  },
  {
    "type": "Feature",
    "geometry": {
      "type": "Point",
      "coordinates": [
        -3.18024,
        54.4661
      ]
    },
    "properties": {
      "name": "Allen Crags",
      "absolute_height": "785",
      "link": "https://en.wikipedia.org/wiki/Allen_Crags"
    }
  },
  {
    "type": "Feature",
    "geometry": {
      "type": "Point",
      "coordinates": [
        -3.08791,
        54.53347
      ]
    },
    "properties": {
      "name": "Armboth Fell",
      "absolute_height": "479",
      "link": "https://en.wikipedia.org/wiki/Armboth_Fell"
    }
  },
  {
    "type": "Feature",
    "geometry": {
      "type": "Point",
      "coordinates": [
        -2.83537,
        54.57772
      ]
    },
    "properties": {
      "name": "Arthur&#39;s Pike",
      "absolute_height": "533",
      "link": "https://en.wikipedia.org/wiki/Arthur's_Pike"
    }
  },
  {
    "type": "Feature",
    "geometry": {
      "type": "Point",
      "coordinates": [
        -3.13952,
        54.66601
      ]
    },
    "properties": {
      "name": "Bakestall",
      "absolute_height": "673",
      "link": "https://en.wikipedia.org/wiki/Bakestall"
    }
  },
  {
    "type": "Feature",
    "geometry": {
      "type": "Point",
      "coordinates": [
        -3.03217,
        54.65169
      ]
    },
    "properties": {
      "name": "Bannerdale Crags",
      "absolute_height": "683",
      "link": "https://en.wikipedia.org/wiki/Bannerdale_Crags"
    }
  },
  {
    "type": "Feature",
    "geometry": {
      "type": "Point",
      "coordinates": [
        -2.98441,
        54.53526
      ]
    },
    "properties": {
      "name": "Birkhouse Moor",
      "absolute_height": "718",
      "link": "https://en.wikipedia.org/wiki/Birkhouse_Moor"
    }
  },
  {
    "type": "Feature",
    "geometry": {
      "type": "Point",
      "coordinates": [
        -2.84765,
        54.57314
      ]
    },
    "properties": {
      "name": "Bonscale Pike",
      "absolute_height": "524",
      "link": "https://en.wikipedia.org/wiki/Bonscale_Pike"
    }
  },
  {
    "type": "Feature",
    "geometry": {
      "type": "Point",
      "coordinates": [
        -3.03406,
        54.66516
      ]
    },
    "properties": {
      "name": "Bowscale Fell",
      "absolute_height": "702",
      "link": "https://en.wikipedia.org/wiki/Bowscale_Fell"
    }
  },
  {
    "type": "Feature",
    "geometry": {
      "type": "Point",
      "coordinates": [
        -3.10649,
        54.70586
      ]
    },
    "properties": {
      "name": "Brae Fell",
      "absolute_height": "586",
      "link": "https://en.wikipedia.org/wiki/Brae_Fell"
    }
  },
  {
    "type": "Feature",
    "geometry": {
      "type": "Point",
      "coordinates": [
        -3.12381,
        54.37766
      ]
    },
    "properties": {
      "name": "Brim Fell",
      "absolute_height": "796",
      "link": "https://en.wikipedia.org/wiki/Brim_Fell"
    }
  },
  {
    "type": "Feature",
    "geometry": {
      "type": "Point",
      "coordinates": [
        -2.89897,
        54.51525
      ]
    },
    "properties": {
      "name": "Brock Crags",
      "absolute_height": "562",
      "link": "https://en.wikipedia.org/wiki/Brock_Crags"
    }
  },
  {
    "type": "Feature",
    "geometry": {
      "type": "Point",
      "coordinates": [
        -3.248,
        54.631
      ]
    },
    "properties": {
      "name": "Broom Fell",
      "absolute_height": "511",
      "link": "https://en.wikipedia.org/wiki/Broom_Fell"
    }
  },
  {
    "type": "Feature",
    "geometry": {
      "type": "Point",
      "coordinates": [
        -3.07891,
        54.48502
      ]
    },
    "properties": {
      "name": "Calf Crag",
      "absolute_height": "537",
      "link": "https://en.wikipedia.org/wiki/Calf_Crag"
    }
  },
  {
    "type": "Feature",
    "geometry": {
      "type": "Point",
      "coordinates": [
        -3.023148,
        54.693561
      ]
    },
    "properties": {
      "name": "Carrock Fell",
      "absolute_height": "661",
      "link": "https://en.wikipedia.org/wiki/Carrock_Fell"
    }
  },
  {
    "type": "Feature",
    "geometry": {
      "type": "Point",
      "coordinates": [
        -3.03972,
        54.33977
      ]
    },
    "properties": {
      "name": "Carron Crag",
      "absolute_height": "314",
      "link": "https://en.wikipedia.org/wiki/Carron_Crag"
    }
  },
  {
    "type": "Feature",
    "geometry": {
      "type": "Point",
      "coordinates": [
        -2.96777,
        54.48506
      ]
    },
    "properties": {
      "name": "Dove Crags",
      "absolute_height": "792",
      "link": "https://en.wikipedia.org/wiki/Dove_Crag"
    }
  },
  {
    "type": "Feature",
    "geometry": {
      "type": "Point",
      "coordinates": [
        -3.368,
        54.553
      ]
    },
    "properties": {
      "name": "Gavel Fell",
      "absolute_height": "526",
      "link": "https://en.wikipedia.org/wiki/Gavel_Fell"
    }
  },
  {
    "type": "Feature",
    "geometry": {
      "type": "Point",
      "coordinates": [
        -3.35685,
        54.53435
      ]
    },
    "properties": {
      "name": "Great Borne",
      "absolute_height": "616",
      "link": "https://en.wikipedia.org/wiki/Great_Borne"
    }
  },
  {
    "type": "Feature",
    "geometry": {
      "type": "Point",
      "coordinates": [
        -3.102,
        54.669
      ]
    },
    "properties": {
      "name": "Great Calva",
      "absolute_height": "690",
      "link": "https://en.wikipedia.org/wiki/Great_Calva"
    }
  },
  {
    "type": "Feature",
    "geometry": {
      "type": "Point",
      "coordinates": [
        -3.12438,
        54.39833
      ]
    },
    "properties": {
      "name": "Great Carrs",
      "absolute_height": "788",
      "link": "https://en.wikipedia.org/wiki/Great_Carrs"
    }
  },
  {
    "type": "Feature",
    "geometry": {
      "type": "Point",
      "coordinates": [
        -3.12931,
        54.68947
      ]
    },
    "properties": {
      "name": "Great Cockup",
      "absolute_height": "526",
      "link": "https://en.wikipedia.org/wiki/Great_Cockup"
    }
  },
  {
    "type": "Feature",
    "geometry": {
      "type": "Point",
      "coordinates": [
        -2.99709,
        54.48483
      ]
    },
    "properties": {
      "name": "Great Rigg",
      "absolute_height": "766",
      "link": "https://en.wikipedia.org/wiki/Great_Rigg"
    }
  },
  {
    "type": "Feature",
    "geometry": {
      "type": "Point",
      "coordinates": [
        -3.10152,
        54.69422
      ]
    },
    "properties": {
      "name": "Great Sca Fell",
      "absolute_height": "651",
      "link": "https://en.wikipedia.org/wiki/Great_Sca_Fell"
    }
  },
  {
    "type": "Feature",
    "geometry": {
      "type": "Point",
      "coordinates": [
        -3.2325,
        54.37388888888889
      ]
    },
    "properties": {
      "name": "Green Crag",
      "absolute_height": "489",
      "link": "https://en.wikipedia.org/wiki/Green_Crag"
    }
  },
  {
    "type": "Feature",
    "geometry": {
      "type": "Point",
      "coordinates": [
        -2.77739,
        54.45768
      ]
    },
    "properties": {
      "name": "Grey Crag",
      "absolute_height": "638",
      "link": "https://en.wikipedia.org/wiki/Grey_Crag"
    }
  },
  {
    "type": "Feature",
    "geometry": {
      "type": "Point",
      "coordinates": [
        -3.14271,
        54.39276
      ]
    },
    "properties": {
      "name": "Grey Friar",
      "absolute_height": "770",
      "link": "https://en.wikipedia.org/wiki/Grey_Friar"
    }
  },
  {
    "type": "Feature",
    "geometry": {
      "type": "Point",
      "coordinates": [
        -2.97722,
        54.49308
      ]
    },
    "properties": {
      "name": "Hart Crag",
      "absolute_height": "822",
      "link": "https://en.wikipedia.org/wiki/Hart_Crag"
    }
  },
  {
    "type": "Feature",
    "geometry": {
      "type": "Point",
      "coordinates": [
        -2.9094,
        54.4981
      ]
    },
    "properties": {
      "name": "Hartsop Dodd",
      "absolute_height": "618",
      "link": "https://en.wikipedia.org/wiki/Hartsop_Dodd"
    }
  },
  {
    "type": "Feature",
    "geometry": {
      "type": "Point",
      "coordinates": [
        -3.342,
        54.551
      ]
    },
    "properties": {
      "name": "Hen Comb",
      "absolute_height": "509",
      "link": "https://en.wikipedia.org/wiki/Hen_Comb"
    }
  },
  {
    "type": "Feature",
    "geometry": {
      "type": "Point",
      "coordinates": [
        -2.99661,
        54.46506
      ]
    },
    "properties": {
      "name": "Heron Pike",
      "absolute_height": "612",
      "link": "https://en.wikipedia.org/wiki/Heron_Pike"
    }
  },
  {
    "type": "Feature",
    "geometry": {
      "type": "Point",
      "coordinates": [
        -2.968,
        54.47
      ]
    },
    "properties": {
      "name": "High Pike",
      "absolute_height": "656",
      "link": "https://en.wikipedia.org/wiki/High_Pike_(Scandale)"
    }
  },
  {
    "type": "Feature",
    "geometry": {
      "type": "Point",
      "coordinates": [
        -2.85552,
        54.50568
      ]
    },
    "properties": {
      "name": "Kidsty Pike",
      "absolute_height": "780",
      "link": "https://en.wikipedia.org/wiki/Kidsty_Pike"
    }
  },
  {
    "type": "Feature",
    "geometry": {
      "type": "Point",
      "coordinates": [
        -3.242,
        54.558
      ]
    },
    "properties": {
      "name": "Knott Rigg",
      "absolute_height": "556",
      "link": "https://en.wikipedia.org/wiki/Knott_Rigg"
    }
  },
  {
    "type": "Feature",
    "geometry": {
      "type": "Point",
      "coordinates": [
        -3.079,
        54.435
      ]
    },
    "properties": {
      "name": "Lingmoor Fell",
      "absolute_height": "469",
      "link": "https://en.wikipedia.org/wiki/Lingmoor_Fell"
    }
  },
  {
    "type": "Feature",
    "geometry": {
      "type": "Point",
      "coordinates": [
        -2.94762,
        54.48163
      ]
    },
    "properties": {
      "name": "Little Hart Crag",
      "absolute_height": "637",
      "link": "https://en.wikipedia.org/wiki/Little_Hart_Crag"
    }
  },
  {
    "type": "Feature",
    "geometry": {
      "type": "Point",
      "coordinates": [
        -2.84109,
        54.55521
      ]
    },
    "properties": {
      "name": "Loadpot Hill",
      "absolute_height": "672",
      "link": "https://en.wikipedia.org/wiki/Loadpot_Hill"
    }
  },
  {
    "type": "Feature",
    "geometry": {
      "type": "Point",
      "coordinates": [
        -3.165,
        54.645
      ]
    },
    "properties": {
      "name": "Long Side",
      "absolute_height": "734",
      "link": "https://en.wikipedia.org/wiki/Long_Side"
    }
  },
  {
    "type": "Feature",
    "geometry": {
      "type": "Point",
      "coordinates": [
        -3.10921,
        54.63484
      ]
    },
    "properties": {
      "name": "Lonscale Fell",
      "absolute_height": "715",
      "link": "https://en.wikipedia.org/wiki/Lonscale_Fell"
    }
  },
  {
    "type": "Feature",
    "geometry": {
      "type": "Point",
      "coordinates": [
        -2.96874,
        54.46079
      ]
    },
    "properties": {
      "name": "Low Pike",
      "absolute_height": "508",
      "link": "https://en.wikipedia.org/wiki/Low_Pike"
    }
  },
  {
    "type": "Feature",
    "geometry": {
      "type": "Point",
      "coordinates": [
        -2.85352,
        54.48413
      ]
    },
    "properties": {
      "name": "Mardale Ill Bell",
      "absolute_height": "760",
      "link": "https://en.wikipedia.org/wiki/Mardale_Ill_Bell"
    }
  },
  {
    "type": "Feature",
    "geometry": {
      "type": "Point",
      "coordinates": [
        -3.11545,
        54.6932
      ]
    },
    "properties": {
      "name": "Meal Fell",
      "absolute_height": "550",
      "link": "https://en.wikipedia.org/wiki/Meal_Fell"
    }
  },
  {
    "type": "Feature",
    "geometry": {
      "type": "Point",
      "coordinates": [
        -2.93211,
        54.47815
      ]
    },
    "properties": {
      "name": "Middle Dodd",
      "absolute_height": "654",
      "link": "https://en.wikipedia.org/wiki/Middle_Dodd"
    }
  },
  {
    "type": "Feature",
    "geometry": {
      "type": "Point",
      "coordinates": [
        -3.311,
        54.454
      ]
    },
    "properties": {
      "name": "Middle Fell",
      "absolute_height": "582",
      "link": "https://en.wikipedia.org/wiki/Middle_Fell"
    }
  },
  {
    "type": "Feature",
    "geometry": {
      "type": "Point",
      "coordinates": [
        -2.86173,
        54.50744
      ]
    },
    "properties": {
      "name": "Rampsgill Head",
      "absolute_height": "792",
      "link": "https://en.wikipedia.org/wiki/Rampsgill_Head"
    }
  },
  {
    "type": "Feature",
    "geometry": {
      "type": "Point",
      "coordinates": [
        -3.15176,
        54.49603
      ]
    },
    "properties": {
      "name": "Rosthwaite Fell",
      "absolute_height": "612",
      "link": "https://en.wikipedia.org/wiki/Rosthwaite_Fell"
    }
  },
  {
    "type": "Feature",
    "geometry": {
      "type": "Point",
      "coordinates": [
        -3.248,
        54.656
      ]
    },
    "properties": {
      "name": "Sale Fell",
      "absolute_height": "359",
      "link": "https://en.wikipedia.org/wiki/Sale_Fell"
    }
  },
  {
    "type": "Feature",
    "geometry": {
      "type": "Point",
      "coordinates": [
        -2.86932,
        54.42829
      ]
    },
    "properties": {
      "name": "Sallows",
      "absolute_height": "516",
      "link": "https://en.wikipedia.org/wiki/Sallows"
    }
  },
  {
    "type": "Feature",
    "geometry": {
      "type": "Point",
      "coordinates": [
        -2.79354,
        54.49532
      ]
    },
    "properties": {
      "name": "Selside Pike",
      "absolute_height": "655",
      "link": "https://en.wikipedia.org/wiki/Selside_Pike"
    }
  },
  {
    "type": "Feature",
    "geometry": {
      "type": "Point",
      "coordinates": [
        -3.22095,
        54.43424
      ]
    },
    "properties": {
      "name": "Slight Side",
      "absolute_height": "762",
      "link": "https://en.wikipedia.org/wiki/Slight_Side"
    }
  },
  {
    "type": "Feature",
    "geometry": {
      "type": "Point",
      "coordinates": [
        -3.05283,
        54.49154
      ]
    },
    "properties": {
      "name": "Steel Fell",
      "absolute_height": "553",
      "link": "https://en.wikipedia.org/wiki/Steel_Fell"
    }
  },
  {
    "type": "Feature",
    "geometry": {
      "type": "Point",
      "coordinates": [
        -2.86737,
        54.55503
      ]
    },
    "properties": {
      "name": "Steel Knotts",
      "absolute_height": "432",
      "link": "https://en.wikipedia.org/wiki/Steel_Knotts"
    }
  },
  {
    "type": "Feature",
    "geometry": {
      "type": "Point",
      "coordinates": [
        -3.12123,
        54.39566
      ]
    },
    "properties": {
      "name": "Swirl How",
      "absolute_height": "802",
      "link": "https://en.wikipedia.org/wiki/Swirl_How"
    }
  },
  {
    "type": "Feature",
    "geometry": {
      "type": "Point",
      "coordinates": [
        -2.8782,
        54.48305
      ]
    },
    "properties": {
      "name": "Thornthwaite Crag",
      "absolute_height": "784",
      "link": "https://en.wikipedia.org/wiki/Thornthwaite_Crag"
    }
  },
  {
    "type": "Feature",
    "geometry": {
      "type": "Point",
      "coordinates": [
        -3.173,
        54.648
      ]
    },
    "properties": {
      "name": "Ullock Pike",
      "absolute_height": "692",
      "link": "https://en.wikipedia.org/wiki/Ullock_Pike"
    }
  },
  {
    "type": "Feature",
    "geometry": {
      "type": "Point",
      "coordinates": [
        -3.09475,
        54.50016
      ]
    },
    "properties": {
      "name": "Ullscarf",
      "absolute_height": "726",
      "link": "https://en.wikipedia.org/wiki/Ullscarf"
    }
  },
  {
    "type": "Feature",
    "geometry": {
      "type": "Point",
      "coordinates": [
        -2.92194,
        54.43779
      ]
    },
    "properties": {
      "name": "Wansfell",
      "absolute_height": "486",
      "link": "https://en.wikipedia.org/wiki/Wansfell"
    }
  },
  {
    "type": "Feature",
    "geometry": {
      "type": "Point",
      "coordinates": [
        -3.30988,
        54.41893
      ]
    },
    "properties": {
      "name": "Whin Rigg",
      "absolute_height": "535",
      "link": "https://en.wikipedia.org/wiki/Whin_Rigg"
    }
  },
  {
    "type": "Feature",
    "geometry": {
      "type": "Point",
      "coordinates": [
        -3.252,
        54.614
      ]
    },
    "properties": {
      "name": "Whinlatter",
      "absolute_height": "525",
      "link": "https://en.wikipedia.org/wiki/Whinlatter"
    }
  },
  {
    "type": "Feature",
    "geometry": {
      "type": "Point",
      "coordinates": [
        -3.146,
        54.647
      ]
    },
    "properties": {
      "name": "Skiddaw",
      "absolute_height": "931",
      "link": "https://en.wikipedia.org/wiki/Skiddaw"
    }
  },
  {
    "type": "Feature",
    "geometry": {
      "type": "Point",
      "coordinates": [
        -2.876354,
        54.57057
      ]
    },
    "properties": {
      "name": "Hallin Fell",
      "absolute_height": "388",
      "link": "https://en.wikipedia.org/wiki/Hallin_Fell"
    }
  },
  {
    "type": "Feature",
    "geometry": {
      "type": "Point",
      "coordinates": [
        -3.248,
        54.508
      ]
    },
    "properties": {
      "name": "Haystacks",
      "absolute_height": "597",
      "link": "https://en.wikipedia.org/wiki/Haystacks_(Lake_District)"
    }
  },
  {
    "type": "Feature",
    "geometry": {
      "type": "Point",
      "coordinates": [
        -3.2587,
        54.5093
      ]
    },
    "properties": {
      "name": "Seat (Buttermere)",
      "absolute_height": "561",
      "link": "https://en.wikipedia.org/wiki/Seat_(Buttermere)"
    }
  },
  {
    "type": "Feature",
    "geometry": {
      "type": "Point",
      "coordinates": [
        -2.95421,
        54.49955
      ]
    },
    "properties": {
      "name": "Hartsop above How",
      "absolute_height": "586",
      "link": "https://en.wikipedia.org/wiki/Hartsop_above_How"
    }
  },
  {
    "type": "Feature",
    "geometry": {
      "type": "Point",
      "coordinates": [
        -3.192,
        54.478
      ]
    },
    "properties": {
      "name": "Seathwaite Fell",
      "absolute_height": "632",
      "link": "https://en.wikipedia.org/wiki/Seathwaite_Fell"
    }
  },
  {
    "type": "Feature",
    "geometry": {
      "type": "Point",
      "coordinates": [
        -2.869,
        54.451
      ]
    },
    "properties": {
      "name": "Yoke",
      "absolute_height": "706",
      "link": "https://en.wikipedia.org/wiki/Yoke_(Lake_District)"
    }
  },
  {
    "type": "Feature",
    "geometry": {
      "type": "Point",
      "coordinates": [
        -3.21476,
        54.53766
      ]
    },
    "properties": {
      "name": "Hindscarth",
      "absolute_height": "727",
      "link": "https://en.wikipedia.org/wiki/Hindscarth"
    }
  },
  {
    "type": "Feature",
    "geometry": {
      "type": "Point",
      "coordinates": [
        -2.93853,
        54.48889
      ]
    },
    "properties": {
      "name": "High Hartsop Dodd",
      "absolute_height": "519",
      "link": "https://en.wikipedia.org/wiki/High_Hartsop_Dodd"
    }
  },
  {
    "type": "Feature",
    "geometry": {
      "type": "Point",
      "coordinates": [
        -3.06377,
        54.31799
      ]
    },
    "properties": {
      "name": "Top o&#39;Selside",
      "absolute_height": "335",
      "link": "https://en.wikipedia.org/wiki/Top_o'Selside"
    }
  },
  {
    "type": "Feature",
    "geometry": {
      "type": "Point",
      "coordinates": [
        -3.02849,
        54.56725
      ]
    },
    "properties": {
      "name": "Watson&#39;s Dodd",
      "absolute_height": "789",
      "link": "https://en.wikipedia.org/wiki/Watson's_Dodd"
    }
  }
]
